{"type": "FeatureCollection", "features": [{"type": "Feature", "geometry": {"type": "Point", "coordinates": [78.0081, 27.1767]}, "properties": {"City": "Agra", "predicted_AQI": 426}}, {"type": "Feature", "geometry": {"type": "Point", "coordinates": [72.5714, 23.0225]}, "properties": {"City": "Ahmedabad", "predicted_AQI": 262}}, {"type": "Feature", "geometry": {"type": "Point", "coordinates": [74.8723, 31.634]}, "properties": {"City": "Amritsar", "predicted_AQI": 117}}, {"type": "Feature", "geometry": {"type": "Point", "coordinates": [77.5946, 12.9716]}, "properties": {"City": "Bengaluru", "predicted_AQI": 303}}, {"type": "Feature", "geometry": {"type": "Point", "coordinates": [77.4126, 23.2599]}, "properties": {"City": "Bhopal", "predicted_AQI": 125}}, {"type": "Feature", "geometry": {"type": "Point", "coordinates": [76.7794, 30.7333]}, "properties": {"City": "Chandigarh", "predicted_AQI": 141}}, {"type": "Feature", "geometry": {"type": "Point", "coordinates": [80.2707, 13.0827]}, "properties": {"City": "Chennai", "predicted_AQI": 228}}, {"type": "Feature", "geometry": {"type": "Point", "coordinates": [77.209, 28.6139]}, "properties": {"City": "Delhi", "predicted_AQI": 334}}, {"type": "Feature", "geometry": {"type": "Point", "coordinates": [72.6369, 23.2156]}, "properties": {"City": "Gandhinagar", "predicted_AQI": 89}}, {"type": "Feature", "geometry": {"type": "Point", "coordinates": [77.0266, 28.4595]}, "properties": {"City": "Gurugram", "predicted_AQI": 144}}, {"type": "Feature", "geometry": {"type": "Point", "coordinates": [78.4867, 17.385]}, "properties": {"City": "Hyderabad", "predicted_AQI": 76}}, {"type": "Feature", "geometry": {"type": "Point", "coordinates": [88.3639, 22.5726]}, "properties": {"City": "Kolkata", "predicted_AQI": 68}}, {"type": "Feature", "geometry": {"type": "Point", "coordinates": [80.9462, 26.8467]}, "properties": {"City": "Lucknow", "predicted_AQI": 363}}, {"type": "Feature", "geometry": {"type": "Point", "coordinates": [72.8777, 19.076]}, "properties": {"City": "Mumbai", "predicted_AQI": 46}}, {"type": "Feature", "geometry": {"type": "Point", "coordinates": [77.391, 28.5355]}, "properties": {"City": "Noida", "predicted_AQI": 372}}, {"type": "Feature", "geometry": {"type": "Point", "coordinates": [85.1376, 25.5941]}, "properties": {"City": "Patna", "predicted_AQI": 119}}, {"type": "Feature", "geometry": {"type": "Point", "coordinates": [79.8145, 11.9139]}, "properties": {"City": "Puducherry", "predicted_AQI": 57}}, {"type": "Feature", "geometry": {"type": "Point", "coordinates": [74.7973, 34.0837]}, "properties": {"City": "Srinagar", "predicted_AQI": 49}}, {"type": "Feature", "geometry": {"type": "Point", "coordinates": [75.7849, 23.1793]}, "properties": {"City": "Ujjain", "predicted_AQI": 181}}, {"type": "Feature", "geometry": {"type": "Point", "coordinates": [83.2185, 17.6868]}, "properties": {"City": "Visakhapatnam", "predicted_AQI": 84}}, {"type": "Feature", "geometry": {"type": "Point", "coordinates": [91.7362, 26.1445]}, "properties": {"City": "Guwahati", "predicted_AQI": 68}}]}